[{"city":"呼和浩特","address":"内蒙古呼和浩特市回民区中心西路王府井二楼","title":"呼和浩特王府井","lat":111.672888,"lng":40.818833},{"city":"呼和浩特","address":"内蒙古呼和浩特市回民区中心西路维多利时代城二楼","title":"呼和浩特维多利时代城","lat":111.674966,"lng":40.821058},{"city":"呼和浩特","address":"内蒙古呼和浩特市回民区中心西路维多利购物中心四楼","title":"呼和浩特维多利购物中心","lat":111.676421,"lng":40.822573},{"city":"呼和浩特","address":"内蒙古呼和浩特市万达广场一层","title":"呼和浩特万达","lat":111.74106,"lng":40.84264},{"city":"呼和浩特","address":"内蒙古呼和浩特市赛罕区凯德MALL一楼","title":"呼和浩特凯德","lat":111.687271,"lng":40.803093},{"city":"包头","address":"内蒙古包头市昆区钢铁大街包头百货大楼三层","title":"包头包百","lat":109.822511,"lng":40.664632},{"city":"包头","address":"内蒙古包头市包百时代蓝天百货一层","title":"包头包百时代","lat":109.823135,"lng":40.663852},{"city":"沈阳","address":"沈阳市沈河区中街路68号久光2F","title":"沈阳久光","lat":123.45928,"lng":41.807785},{"city":"西安","address":"陕西省西安市碑林区东大街骡马市民生百货二楼","title":"西安兴正元","lat":108.956811,"lng":34.26559},{"city":"西安","address":"解放路民乐园万达广场3楼","title":"西安民乐园万达","lat":108.971846,"lng":34.271609},{"city":"乌鲁木齐","address":"乌鲁木齐中山路230号亚欣生活广场负一楼","title":"乌鲁木齐亚欣生活广场","lat":87.623111,"lng":43.800193},{"city":"贵阳","address":"阳市云岩区中华中路龙港百盛2F","title":"贵阳龙港百盛","lat":106.719305,"lng":26.584773},{"city":"昆明","address":"云南省昆明市正义路昆明百大新天地二楼209-210","title":"昆明百大新天地","lat":102.71597,"lng":25.0428},{"city":"长沙","address":"长沙市场开福区五一西路万达广场室内步行街3层3051","title":"长沙开福万达","lat":112.981459,"lng":28.196831},{"city":"长沙","address":"长沙市天心区黄兴南路王府井百货4F","title":"长沙王府井百货","lat":119.312744,"lng":26.097242},{"city":"湘潭","address":"湖南省湘潭市岳塘区建设路口步步高广场3F","title":"湘潭步步高","lat":112.924551,"lng":27.840614},{"city":"株洲","address":"湖南省株洲市芦淞区新华西路999号王府井商场3F","title":"株洲王府井","lat":113.160652,"lng":27.844559},{"city":"海口","address":"海口市大同路2号友谊商业广场2楼女装部","title":"海口友谊商场","lat":110.344248,"lng":20.043336},{"city":"郑州","address":"郑州市金水区花园路与农业路交汇处大商国贸总店","title":"郑州大商国贸","lat":113.688132,"lng":34.792092},{"city":"郑州","address":"郑州市花园路与农业路交叉口丹尼斯百货3楼","title":"郑州花园路丹尼斯","lat":113.68863,"lng":34.792611},{"city":"南昌","address":"江西省南昌市东湖区中山路177号百盛购物广场二楼","title":"南昌中山路百盛","lat":115.89824,"lng":28.681755},{"city":"南昌","address":"南昌市上海路与北京西路交汇口梦时代广场3楼3S-A4","title":"南昌梦时代","lat":115.945347,"lng":28.680202},{"city":"江阴","address":"江阴市人民西路281号万达广场室内步行街1楼1011号","title":"江阴万达","lat":120.251765,"lng":31.905318},{"city":"成都","address":"成都市人民南路四段3号来福士广场2层2018号","title":"成都来福士广场","lat":104.07352,"lng":30.637437},{"city":"成都","address":"成都市金牛区一环路北三段1号2030号店铺","title":"成都金牛万达","lat":104.080232,"lng":30.692008},{"city":"成都","address":"成都市锦江区大科甲巷8号伊势丹百货3楼","title":"成都伊势丹","lat":104.08654,"lng":30.660739},{"city":"成都","address":"成都市锦江区春熙路南段8号群光广场4楼","title":"成都群光","lat":104.083521,"lng":30.659612},{"city":"成都","address":"成都市成华区双林路339号欢乐颂3楼 ","title":"成都欢乐颂","lat":104.100679,"lng":30.667247},{"city":"成都","address":"成都市锦江区总府路15号4楼","title":"成都王府井","lat":104.086246,"lng":30.663845},{"city":"厦门","address":"厦门市湖里区仙岳路4666号万达广场一楼138号","title":"厦门湖里万达","lat":118.182626,"lng":24.511333},{"city":"厦门","address":"厦门市厦禾路899号罗宾森广场一楼1S-17B","title":"厦门罗宾森商业广场","lat":118.120937,"lng":24.475054},{"city":"厦门","address":"厦门市集美万达广场室内步行街1楼1015号","title":"厦门集美万达","lat":118.099747,"lng":24.579857},{"city":"莆田","address":"福建省莆田市城厢区霞林街道荔华东大道8号","title":"莆田万达","lat":119.004029,"lng":25.425347},{"city":"南宁","address":"广西南宁市青秀区民族大道136号万象城百货4F","title":"南宁万象城","lat":108.398348,"lng":22.81765},{"city":"南宁","address":"广西南宁市朝阳路青云街18号百盛商场3楼","title":"南宁百盛","lat":108.329108,"lng":22.82004},{"city":"珠海","address":"广东省珠海市吉大区免税商场1F","title":"珠海免税店","lat":113.586696,"lng":22.262011},{"city":"大连","address":"大连市开发区金玛路198号2楼","title":"大连麦凯乐3店","lat":121.785445,"lng":39.054686},{"city":"大连","address":"大连市沙河口区高尔基路701号3层1号","title":"大连和平广场","lat":121.594779,"lng":38.902512},{"city":"大连","address":"大连市中山区青泥街57号麦凯乐总店新馆4楼","title":"大连麦凯乐总店","lat":121.641881,"lng":38.921953},{"city":"天津","address":"天津市和平区南京路189号津乐汇购物中心2F-12","title":"天津津乐汇","lat":117.2041,"lng":39.123485},{"city":"天津","address":"天津市和平区南京路108号现代城2楼","title":"天津伊势丹","lat":117.204422,"lng":39.125129},{"city":"天津","address":"天津市塘沽区解放路668号金元宝商厦2楼","title":"天津金元宝","lat":117.673515,"lng":39.022935},{"city":"上海","address":"上海市虹口区西江湾路388号凯德龙之梦A座3楼","title":"上海虹口龙之梦","lat":121.485625,"lng":31.276724},{"city":"上海","address":"上海市杨浦区国宾路36号万达广场地下一层C-21","title":"上海五角场万达","lat":121.5208,"lng":31.306301},{"city":"上海","address":"上海市杨浦区国宾路36号万达广场地下一层C-21","title":"上海月星环球","lat":121.417832,"lng":31.237064},{"city":"上海","address":"上海市黄浦区淮海中路300号K11购物艺术中心-B210","title":"上海K11","lat":121.48065,"lng":31.229175},{"city":"上海","address":"上海南京西路2-68号3楼一部","title":"上海新世界","lat":121.479238,"lng":31.240676},{"city":"上海","address":"上海市南京西路1618号4楼YES馆Y416","title":"上海久光 ","lat":121.452703,"lng":31.229839},{"city":"上海","address":"上海市浦东新区世纪大道8号国金地下2层 LG2-49&50","title":"上海国金","lat":121.50966,"lng":31.241595},{"city":"上海","address":"上海市淮海中路999号地下2层 LG2-215","title":"上海环茂iapm ","lat":121.464664,"lng":31.222188},{"city":"无锡","address":"无锡市崇安区人民中路无锡恒隆广场商场451-1铺位","title":"无锡恒隆","lat":120.303193,"lng":31.58076},{"city":"杭州","address":"杭州市延安南路98号 3楼","title":"杭州西湖银泰","lat":120.172169,"lng":30.249324},{"city":"杭州","address":"杭州市拱墅区丰谭路380号银泰百货D座地下一楼","title":"杭州城西银泰","lat":120.113912,"lng":30.306951},{"city":"苏州","address":"江苏苏州人民路372号东楼3层","title":"苏州泰华","lat":120.631024,"lng":31.296212},{"city":"苏州","address":"苏州市工业园区现代大道1699号印象城购物中心2F2008B","title":"苏州印象城","lat":120.663806,"lng":31.322644},{"city":"常州","address":"常州市延陵西路1-7号  3楼","title":"常州购物中心","lat":119.96981,"lng":31.781019},{"city":"常州","address":"常州市南大街1号常州百货大楼3F","title":"常州百货大楼","lat":119.960502,"lng":31.78207},{"city":"北京","address":"北京市西城区西单北大街176号汉光百货5层","title":"北京汉光百货","lat":116.381304,"lng":39.915444},{"city":"北京","address":"北京市东城区东直门南大街1号来福士购物中心三层05号 ","title":"来福士","lat":116.438717,"lng":39.946193},{"city":"北京","address":"北京市东城区王府井大街138号新东安广场三层L350","title":"新东安","lat":116.418119,"lng":39.921469},{"city":"北京","address":"北京市崇文区崇外大街18 号北京国瑞购物中心二层F2-14","title":"国瑞城","lat":116.425551,"lng":39.904922},{"city":"北京","address":"北京市海淀区清河中街68号华润置地五彩城L255号商铺","title":"五彩城","lat":116.340427,"lng":40.036525},{"city":"北京","address":"北京市朝阳区光华路9号世贸商业中心1号楼三层L319号","title":"世贸天阶","lat":116.457331,"lng":39.922078},{"city":"北京","address":"北京市昌平区南环路金隅成科广场一层022号","title":"北京金隅万科","lat":116.241194,"lng":40.218005},{"city":"北京","address":"北京市复兴门内大街101号百盛购物中心6层","title":"北京百盛","lat":116.365192,"lng":39.913701},{"city":"武汉","address":"武汉市解放大道688号武汉广场4楼","title":"武汉广场","lat":114.27642,"lng":30.586659},{"city":"武汉","address":"武汉市武昌区水果湖汉街万达J3-2-4号","title":"武汉万达汉街","lat":114.34904,"lng":30.56142},{"city":"武汉","address":"湖北省武汉市硚口区中山大道242号2层","title":"武汉凯德","lat":114.274401,"lng":30.574984},{"city":"武汉","address":"武汉市中山大道756号中山大洋百货3楼","title":"武汉中山大洋","lat":114.296731,"lng":30.583869},{"city":"武汉","address":"武汉市东湖新技术开发区光谷世界城光谷街3号-1区-101号光谷大洋百货2F","title":"武汉光谷大洋","lat":114.408558,"lng":30.512141},{"city":"宜昌","address":"湖北省宜昌市西陵区夷林大道56号宜昌大洋百货3楼","title":"宜昌大洋店","lat":111.298803,"lng":30.713658},{"city":"温州","address":"温州市解放南路银泰百货四楼","title":"温州银泰","lat":120.671304,"lng":28.01219},{"city":"温州","address":"温州市人民路开太百货老馆二楼","title":"温州开太","lat":120.669757,"lng":28.016727},{"city":"温州","address":"温州市车站大道时代广场三楼","title":"温州时代","lat":120.69078,"lng":28.004178},{"city":"温州","address":"温州市龙湾区永中街道永定路1188号万达广场一层1010AB-B-1010B商铺","title":"温州龙湾万达","lat":120.818038,"lng":27.925786},{"city":"金华","address":"浙江省金华市婺城区解放东路168号天地银泰百货A馆四楼 ","title":"金华银泰天地","lat":119.660843,"lng":29.109723},{"city":"宁波","address":"宁波市海曙区中山东路188号银泰百货2楼","title":"宁波银泰自营店","lat":121.561715,"lng":29.876973},{"city":"宁波","address":"宁波市江北区大庆南路99号L2层L234号","title":"宁波来福士","lat":121.56401,"lng":29.887839},{"city":"宁波","address":"宁波市右营巷43号","title":"宁波酷购","lat":121.559107,"lng":29.874789},{"city":"深圳","address":"深圳市南山区桃园路86号天虹商场三楼","title":"深圳南山天虹","lat":113.928905,"lng":22.538699},{"city":"深圳","address":"深圳市福田区华强北路茂业百货四楼","title":"深圳华强茂业","lat":114.092995,"lng":22.551216},{"city":"深圳","address":"深圳市罗湖区解放路2001号利联太阳广场二楼","title":"深圳太阳广场","lat":114.124519,"lng":22.551883},{"city":"深圳","address":"深圳市罗湖区东门中路茂业百货四楼","title":"深圳东门茂业","lat":114.12786,"lng":22.553569},{"city":"深圳","address":"深圳市福田区华强北振兴路55号紫荆城一层","title":"深圳紫荆城华强店","lat":114.096279,"lng":22.552409},{"city":"深圳","address":"深圳市宝安南路1881号华润中心万象城2楼NOVO","title":"深圳NOVO","lat":114.117659,"lng":22.545959},{"city":"深圳","address":"深圳区南山区商业文化中心文心二路茂业时代广场商场4楼","title":"深圳南山茂业","lat":113.936868,"lng":22.524987},{"city":"深圳","address":"深圳市罗湖区建设路3018号1234space三层L319号","title":"深圳华润1234SPACE","lat":114.122996,"lng":22.550982},{"city":"深圳","address":"深圳福田区福华三路118号皇庭国商购物广场G层18号","title":"深圳皇庭广场","lat":114.066883,"lng":22.538624},{"city":"广州","address":"广州市天河区天河路230号万菱汇L1一10铺","title":"广州万菱汇","lat":113.336057,"lng":23.138734},{"city":"广州","address":"广州市海珠区工业大道北106-108号B1层S55、S56、S57号商铺","title":"广州乐峰","lat":113.266648,"lng":23.095202},{"city":"广州","address":"广州市天河路228号正佳广场北门A104、A105号商铺","title":"广州正佳广场NOVO ","lat":113.333813,"lng":23.138485},{"city":"青岛","address":"青岛市香港中路69号麦凯乐3楼","title":"青岛麦凯乐","lat":120.409562,"lng":36.0714},{"city":"重庆","address":"重庆市江北区龙湖北城天街新馆CQBCTJSY-X-3F-011","title":"重庆北城天街","lat":106.540077,"lng":29.582934},{"city":"重庆","address":"重庆市南岸区江南大道28号LG2层022-023铺位","title":"重庆协信时代广场","lat":106.584193,"lng":29.5637},{"city":"重庆","address":"重庆市沙坪坝区双巷子9号凯瑞百货2楼","title":"重庆凯瑞","lat":106.470547,"lng":29.563322},{"city":"重庆","address":"重庆市渝中区长江2路174号龙湖时代天街A区2层08、09号","title":"重庆时代天街","lat":106.5178,"lng":29.544636},{"city":"福州","address":"福建省福州市鼓楼区八一七北路133号大洋百货东街店4楼","title":"福州大洋一店","lat":119.306763,"lng":26.091408},{"city":"福州","address":"福州市仓山区浦上大道276号仓山万达广场（一区）3号楼购物中心室内步行街一层38号店面","title":"福州万达仓山","lat":119.280799,"lng":26.041469},{"city":"福州","address":"福建省福州市鼓楼区八一七北路84号福州东百百货2楼A214","title":"福州东百","lat":119.305881,"lng":26.091352},{"city":"福州","address":"福建省福州市鼓楼区鼓楼五四路128号（闽江饭店旁）王府井百货4楼 ","title":"福州王府井","lat":119.312376,"lng":26.098077},{"city":"福州","address":"福建省福州市晋安区新店镇坂中路6号3期6号楼泰禾城市广场2层L204","title":"福州泰禾","lat":119.332378,"lng":26.14483},{"city":"西安","address":"西安市高新区科技路37号玫瑰大楼2层","title":"西安高新金鹰","lat":108.907817,"lng":34.238317},{"city":"贵阳","address":"贵阳市喷水池国贸广场三楼","title":"贵阳国贸百货","lat":106.718262,"lng":26.58984},{"city":"南昌","address":"江西省南昌市八一大道357号财富广场2楼","title":"南昌财富广场","lat":115.910485,"lng":28.683854},{"city":"成都","address":"成都市青羊区二环路西二段19号3楼","title":"成都仁和春天","lat":104.026371,"lng":30.668864},{"city":"成都","address":"成都市武侯区科华中路5号王府井购物中心2楼","title":"成都王府井2号店","lat":104.082635,"lng":30.624502},{"city":"青岛","address":"青岛市香港中路38号阳光百货2楼","title":"青岛阳光百货","lat":120.3971,"lng":36.0709},{"city":"海口","address":"海南省海口市海秀大道望海国际商城民生百货 2F","title":"海口民生","lat":110.352278,"lng":20.034558},{"city":"大连","address":"大连市中山区青泥街57号2楼","title":"大连麦凯乐","lat":121.643198,"lng":38.921392},{"city":"沈阳","address":"沈阳市沈河区中街路128号皇城恒隆广场1楼127号","title":"沈阳恒隆","lat":123.440846,"lng":41.806286},{"city":"天津","address":"天津市河西区乐园道9号银河国际购物中心L2-022、L2-021-2","title":"天津银河国际","lat":117.219893,"lng":39.096847},{"city":"上海","address":"上海市南京西路1038号4楼","title":"梅陇镇","lat":121.463345,"lng":31.235018},{"city":"上海","address":"上海市中山北路3300号一层 L1119~L1120","title":"上海月星环球","lat":121.417976,"lng":31.236612},{"city":"昆明","address":"昆明市白塔路131号金格百货汇都店二楼","title":"昆明汇都","lat":102.732183,"lng":25.0419},{"city":"杭州","address":"杭州市延安路530号 2楼","title":"杭州武林银泰","lat":120.17021,"lng":30.273841},{"city":"常州","address":"常州市钟楼区延陵西路95号~97号","title":"常州泰富","lat":119.856269,"lng":31.792651},{"city":"江阴","address":"江阴市人民中路85号2楼","title":"江阴华联","lat":120.278469,"lng":31.911197},{"city":"北京","address":"北京市朝阳区建国路87号新光天地三层D3025","title":"新光天地","lat":116.484893,"lng":39.915465},{"city":"温州","address":"温州市解放南路温州银泰百货3楼","title":"温州银泰","lat":120.632693,"lng":27.785044},{"city":"温州","address":"温州市车站大道时代广场二楼","title":"温州时代","lat":120.690787,"lng":28.005367},{"city":"金华","address":"浙江省金华市婺城区解放东路168号二楼","title":"金华银泰","lat":119.661687,"lng":29.109699},{"city":"深圳","address":"深圳福田区福华三路COCO PARK一层099-100号","title":"深圳COCOPark","lat":114.062596,"lng":22.538724},{"city":"广州","address":"广州市天河区天河路208号天河城购物中心第一层189-191号","title":"广州天河城","lat":113.33,"lng":23.139225},{"city":"广州","address":"广州市天河路383号太古汇商场MU 38号商铺","title":"广州太古汇","lat":113.338836,"lng":23.139322},{"city":"重庆","address":"重庆市江北区建新北路68号L212商铺","title":"重庆星光68广场","lat":106.537925,"lng":29.584077},{"city":"福州","address":"福州市鼓楼区八一七北路268号福州大洋晶典百货2F 236号","title":"福州大洋二店","lat":119.305639,"lng":26.081718},{"city":"长春","address":"长春市工农大路1128号欧亚商都三楼","title":"长春欧亚","lat":125.306284,"lng":43.876499},{"city":"太原","address":"太原市小店区亲贤街99号3楼","title":"太原王府井","lat":112.566085,"lng":37.829601},{"city":"太原","address":"山西省太原市小店区长风街116号北美新天地3层","title":"太原北美新天地","lat":112.568703,"lng":37.823387},{"city":"哈尔滨","address":"哈尔滨市果戈里大街378号远大购物中心三楼","title":"哈尔滨远大","lat":126.65115,"lng":45.766373},{"city":"呼和浩特","address":"内蒙古呼和浩特新华东街维多利国际广场二层","title":"维多利国际广场","lat":111.704101,"lng":40.833996},{"city":"呼和浩特","address":"内蒙古呼和浩特市万达广场一楼","title":"呼和浩特万达","lat":111.742458,"lng":40.842858},{"city":"呼和浩特","address":"内蒙古呼和浩特中山西路维多利购物中心四层","title":"维多利购物中心","lat":111.676451,"lng":40.822532},{"city":"沈阳","address":"沈阳市大东区小东路1号大商集团新玛特休闲购物广场2楼","title":"沈阳中街新玛特","lat":123.471124,"lng":41.807798},{"city":"沈阳","address":"沈阳市和平区中华路88号沈阳新世界百货3层","title":"沈阳新世界3店","lat":123.409022,"lng":41.797789},{"city":"沈阳","address":"辽宁省沈阳和平区太原北街86号中兴—沈阳商业大厦3F","title":"沈阳中兴","lat":123.407635,"lng":41.799208},{"city":"唐山","address":"河北省唐山市北新西道22号凤凰购物广场4F","title":"唐山凤凰购物广场（新）","lat":118.167389,"lng":39.639165},{"city":"唐山","address":"唐山新华东道100号万达购物广场1楼","title":"唐山万达","lat":118.191401,"lng":39.631303},{"city":"西安","address":"西安市莲湖区西大街（时代盛典）时代百盛购物中心三楼","title":"西安西大街百盛","lat":108.945825,"lng":34.268491},{"city":"西安","address":"西安市东大街民生兴正元一楼","title":"西安兴正元","lat":108.956805,"lng":34.265582},{"city":"西安","address":"陕西省西安市高新区高新路金鹰购物中心4F","title":"西安金鹰国际购物中心","lat":108.909279,"lng":34.238556},{"city":"西安","address":"西安市碑林区解放市场6号开元商场负一层","title":"西安开元钟楼店","lat":108.954672,"lng":34.265038},{"city":"乌鲁木齐","address":"乌鲁木齐市红山友好百盛2F","title":"乌鲁木齐友好百盛","lat":87.60673,"lng":43.810856},{"city":"兰州","address":"兰州市城关区东方红广场国芳百盛5楼5020","title":"兰州国芳百货","lat":103.847137,"lng":36.058811},{"city":"烟台","address":"山东省烟台市芝罘区西大街8号振华商厦东区二楼","title":"烟台振华商厦","lat":121.391001,"lng":37.54733},{"city":"厦门","address":"厦门嘉禾路SM二期新生活广场红宝石2楼 C228","title":"厦门SM二期","lat":118.132144,"lng":24.504552},{"city":"厦门","address":"厦门市湖里区湖边万达广场1-150","title":"厦门湖里万达店","lat":118.182626,"lng":24.511333},{"city":"佛山","address":"广东省佛山市禅城区祖庙路42号之一二楼2A40铺","title":"佛山兴华","lat":113.117814,"lng":23.03205},{"city":"福州","address":"福州市鼓楼区八一七北路133号大洋百货4F-A17 ","title":"福州大洋一店","lat":119.306607,"lng":26.090144},{"city":"福州","address":"福州市台江区鳌峰路万达广场室内步行街B1-27号","title":"福州万达店","lat":119.350089,"lng":26.059262},{"city":"福州","address":"福州市仓山区浦上大道万达广场一区3号楼室内步行街一层1-58号店专柜","title":"福州仓山万达店","lat":119.280558,"lng":26.041631},{"city":"桂林","address":"广西省桂林市秀峰区中山中路37号微笑堂商厦2楼","title":"桂林微笑堂","lat":110.300684,"lng":25.28415},{"city":"贵阳","address":"贵阳市大西门国晨百货二楼","title":"贵阳国晨百货","lat":106.714092,"lng":26.582885},{"city":"贵阳","address":"贵阳市喷水池南国花锦三楼","title":"贵阳南国花景","lat":106.719249,"lng":26.588108},{"city":"昆明","address":"昆明市三市街6号柏联广场百盛二楼","title":"昆明百盛","lat":102.717321,"lng":25.04185},{"city":"昆明","address":"昆明市东风西路顺城购物中心E区二楼","title":"昆明顺城","lat":102.71445,"lng":25.042382},{"city":"长沙","address":"长沙市天心区五一路平和堂2F","title":"长沙平和堂百货","lat":112.983999,"lng":28.199804},{"city":"长沙","address":"长沙市天心区黄兴南路王府井百货4F","title":"长沙王府井百货","lat":112.983008,"lng":28.197742},{"city":"长沙","address":"长沙市芙蓉五一大道368号友谊商店B座5F","title":"长沙友谊","lat":113.004298,"lng":28.2006},{"city":"成都","address":"成都市大科甲巷8号D座2楼","title":"成都伊势丹","lat":104.085958,"lng":30.660219},{"city":"成都","address":"成都市逸都路6号2楼","title":"成都双楠伊腾","lat":104.027076,"lng":30.652133},{"city":"成都","address":"成都市总府路15号4楼","title":"成都王府井","lat":104.086691,"lng":30.6648},{"city":"成都","address":"成都市二环路东5段成仁路口万达广场伊藤 2楼","title":"成都锦华伊藤","lat":104.102906,"lng":30.626709},{"city":"成都","address":"成都市武侯区科华中路5号王府井购物中心2楼","title":"成都王府井2号店","lat":104.083106,"lng":30.625582},{"city":"成都","address":"成都市金牛区一环路北三段1号一楼1068号店铺","title":"成都金牛万达广场","lat":104.081654,"lng":30.692245},{"city":"成都","address":"成都市成华区双林路339号欢乐颂1楼","title":"成都欢乐颂da","lat":104.100093,"lng":30.666265},{"city":"株洲","address":"湖南省株洲市芦淞区车站路61号平和1F","title":"株洲平和堂三店","lat":113.158619,"lng":27.839823},{"city":"株洲","address":"湖南省株洲市芦淞区新华西路999号王府井商场3F","title":"株洲王府井","lat":113.159976,"lng":27.844638},{"city":"株洲","address":"湖南省株洲市芦淞区建设路中兴广场百货大楼5F","title":"株洲百货大楼","lat":113.149634,"lng":27.853915},{"city":"南昌","address":"江西省南昌市中山路177号百盛购物中心2楼","title":"南昌百盛","lat":115.898932,"lng":28.681137},{"city":"南昌","address":"江西省南昌市会展路999号","title":"南昌红谷万达","lat":115.855733,"lng":28.697242},{"city":"南昌","address":"江西南昌中山路1号百货大楼2楼","title":"南昌百货大楼","lat":115.909501,"lng":28.681889},{"city":"郑州","address":"郑州市花园路大商新玛特郑州总店二层  ","title":"郑州大商国贸店","lat":113.688005,"lng":34.791217},{"city":"郑州","address":"郑州市二七路大商新玛特金博大店二层 ","title":"郑州金博大","lat":113.672114,"lng":34.760373},{"city":"郑州","address":"郑州市金水区花园路丹尼斯三楼","title":"郑州丹尼斯花园店","lat":113.687646,"lng":34.7922},{"city":"郑州","address":"郑州市人民路2号丹尼斯百货B1楼","title":"郑州丹尼斯人民路店","lat":113.681499,"lng":34.762783},{"city":"江阴","address":"江阴市人民中路85号3楼","title":"江阴华联","lat":120.278494,"lng":31.911802},{"city":"江阴","address":"江阴市人民西路281号万达广场室内步行街1楼1011号","title":"江阴万达","lat":120.249465,"lng":31.905633},{"city":"青岛","address":"青岛市香港中路38号阳光百货3楼","title":"青岛阳光百货","lat":120.3971,"lng":36.0709},{"city":"青岛","address":"青岛市香港中路69号2楼","title":"青岛麦凯乐","lat":120.409562,"lng":36.0714},{"city":"青岛","address":"青岛市澳门路88号百丽广场东区F1--58/59","title":"青岛百丽","lat":120.401646,"lng":36.065791},{"city":"青岛","address":"青岛香港中路72号佳世客一楼","title":"青岛东部佳世客","lat":120.402978,"lng":36.070506},{"city":"青岛","address":"青岛市北区延吉116号CBD万达步行街一楼","title":"青岛CBD万达","lat":120.362441,"lng":36.087625},{"city":"南宁","address":"广西南宁民族大道梦之岛百货2F","title":"南宁梦之岛","lat":108.342422,"lng":22.819549},{"city":"南宁","address":"广西南宁市朝阳路青云街18号百盛商场3F ","title":"南宁百盛","lat":108.329091,"lng":22.821131},{"city":"南宁","address":"广西南宁市青秀区民族大道136号万象城百货4F","title":"南宁万象城","lat":108.398699,"lng":22.818399},{"city":"大连","address":"大连市中山区青泥街57号3楼","title":"大连麦凯乐","lat":121.643198,"lng":38.921392},{"city":"大连","address":"大连市青山街1号2楼","title":"大连新玛特","lat":121.641028,"lng":38.92095},{"city":"大连","address":"大连市沙河口区西安路123号2楼","title":"大连麦凯乐二店","lat":121.593061,"lng":38.919728},{"city":"大连","address":"大连市高新区黄浦路500号一层1016","title":"大连高新万达广场","lat":121.53941,"lng":38.867334},{"city":"石家庄","address":"石家庄市中山东路188号北国百货 2楼","title":"石家庄北国","lat":114.516865,"lng":38.048852},{"city":"石家庄","address":"石家庄市长安区中山路与育才街交叉口先天下广场4楼","title":"石家庄先天下","lat":114.53405,"lng":38.048226},{"city":"天津","address":"天津市和平区南京路108号现代城2楼","title":"天津伊势丹","lat":117.204242,"lng":39.124849},{"city":"天津","address":"天津市塘沽区解放路668号金元宝商厦2楼","title":"天津塘沽","lat":117.673901,"lng":39.02269},{"city":"天津","address":"天津市河西区乐园道9号银河国际购物中心L3-036","title":"天津银河国际","lat":117.219893,"lng":39.096849},{"city":"上海","address":"上海市肇嘉浜路1000号2楼","title":"上海汇金百货","lat":121.445773,"lng":31.201287},{"city":"上海","address":"上海市西藏中路268号3楼","title":"上海来福士","lat":121.483977,"lng":31.237588},{"city":"上海","address":"南京西路1618号4楼D405","title":"上海久光百货","lat":121.452703,"lng":31.229839},{"city":"上海","address":"上海市万航渡路889号1楼L21/22","title":"上海悦达889","lat":121.434677,"lng":31.23569},{"city":"上海","address":"上海市浦东新区张杨路501号3楼 332","title":"上海八佰伴","lat":121.524241,"lng":31.233587},{"city":"上海","address":"上海市中山北路3300号三层 L3093-3095","title":"上海月星环球","lat":121.417976,"lng":31.236612},{"city":"上海","address":"上海市浦东新区陆家嘴路168号03FL46A","title":"上海正大广场","lat":121.506718,"lng":31.242652},{"city":"上海","address":"上海市虹桥路1号 4楼422铺位号","title":"上海港汇恒隆广场","lat":121.443759,"lng":31.20212},{"city":"无锡","address":"无锡市中山路343号3楼","title":"无锡商业大厦","lat":120.307178,"lng":31.582175},{"city":"无锡","address":"无锡市中山路168号4楼","title":"无锡八佰伴","lat":120.309433,"lng":31.577506},{"city":"无锡","address":"无锡市崇安区人民中路无锡恒隆广场商场409铺位","title":"无锡恒隆","lat":120.313447,"lng":31.577914},{"city":"杭州","address":"杭州市延安路530号 4楼","title":"杭州武林银泰","lat":120.17021,"lng":30.273841},{"city":"杭州","address":"浙江杭州西湖区萍水街丰潭路口杭州银泰城城西银泰百货地下一楼","title":"杭州城西银泰","lat":120.113898,"lng":30.306111},{"city":"南京","address":"江苏省南京市中山路18号德基广场5楼L509","title":"南京德基","lat":118.790926,"lng":32.048894},{"city":"南京","address":"南京市中山南路122号三楼","title":"南京大洋","lat":118.790475,"lng":32.044172},{"city":"苏州","address":"苏州市人民路372号东楼 3楼","title":"苏州泰华","lat":120.630912,"lng":31.29649},{"city":"苏州","address":"苏州市平江区观前街245号3楼","title":"苏州美罗1店","lat":120.62812,"lng":31.316741},{"city":"常州","address":"常州市钟楼区延陵西路95号~97号","title":"常州泰富","lat":119.963278,"lng":31.784741},{"city":"常州","address":"常州市延陵西路1-7号3楼","title":"常州购物中心","lat":119.969487,"lng":31.78088},{"city":"北京","address":"北京市西城区西单北大街133号君太百货四层","title":"君太百货","lat":116.37948,"lng":39.915763},{"city":"北京","address":"北京市东城区东直门南大街1号来福士购物中心三层11b/12","title":"来福士","lat":116.438717,"lng":39.946193},{"city":"北京","address":"北京市东城区东长安街1号东方新天地首层AA50A","title":"东方新天地","lat":116.41844,"lng":39.916046},{"city":"北京","address":"北京市海淀区复兴路33号翠微大厦四层西区","title":"翠微百货","lat":116.309832,"lng":39.914144},{"city":"北京","address":"北京市海淀区丹棱街甲1号欧美汇商厦地上一层101-08单元","title":"EC mall欧美汇","lat":116.32153,"lng":39.985207},{"city":"北京","address":"北京市海淀区远大路1号金源新燕莎Mall二层2098-2099","title":"金源燕莎","lat":116.296851,"lng":39.964417},{"city":"北京","address":"北京市朝阳区朝阳北路101号朝悦大厦朝阳大悦城3F-29","title":"朝阳大悦城","lat":116.526091,"lng":39.930508},{"city":"北京","address":"北京市朝阳区光华路9号世贸天阶A座二层L221","title":"世贸天阶","lat":116.459614,"lng":39.922555},{"city":"北京","address":"北京市朝阳区东三环中路65号二层205号商铺","title":"富力城","lat":116.467515,"lng":39.899546},{"city":"北京","address":"北京市东城区王府井大街138号新东安广场三层L315","title":"新东安","lat":116.418829,"lng":39.920211},{"city":"北京","address":"北京市海淀区清河中街68号华润置地五彩城L152号商铺","title":"五彩城","lat":116.339113,"lng":40.036553},{"city":"北京","address":"北京市东城区东直门外大街48号银座商场一层11、12号商铺","title":"北京东方银座","lat":116.442037,"lng":39.945453},{"city":"北京","address":"北京市复兴门内大街101号百盛购物中心5层","title":"北京百盛","lat":116.3645,"lng":39.914441},{"city":"武汉","address":"武汉市解放大道688号3楼","title":"武汉广场","lat":114.276123,"lng":30.586924},{"city":"武汉","address":"武汉市洪山区珞瑜路6号2F","title":"武汉群光","lat":114.361734,"lng":30.531943},{"city":"武汉","address":"武汉市武昌区水果湖汉街万达J3-2-4号","title":"武汉万达汉街","lat":114.344743,"lng":30.562586},{"city":"温州","address":"温州市解放南路温州银泰百货4楼","title":"温州银泰新店","lat":120.632693,"lng":27.785044},{"city":"温州","address":"温州市大南路鸿锳大厦103号","title":"温州大南门专卖店","lat":120.670038,"lng":28.014446},{"city":"温州","address":"温州市车站大道时代广场三楼","title":"温州时代","lat":120.690787,"lng":28.005367},{"city":"金华","address":"浙江省金华市婺城区解放东路168号天地银泰百货A馆四楼","title":"金华银泰","lat":119.661687,"lng":29.109699},{"city":"金华","address":"金华市西市街159号4楼","title":"金华一百","lat":119.66068,"lng":29.107964},{"city":"宁波","address":"宁波市中山东路188号2楼","title":"宁波银泰自营店","lat":121.55288,"lng":29.832339},{"city":"宁波","address":"宁波市鄞州区四明中路999号万达广场1B-20","title":"宁波鄞州万达","lat":121.55132,"lng":29.832855},{"city":"宁波","address":"宁波市江北区大庆南路99号L2层L231号","title":"宁波来福士","lat":121.56384,"lng":29.888732},{"city":"深圳","address":"深圳区南山区商业文化中心文心二路茂业时代广场商场4楼","title":"深圳南山茂业","lat":113.936868,"lng":22.524987},{"city":"深圳","address":"深圳市福田区街道福华一路3号怡景中心城G层RG035-036号","title":"深圳中心城","lat":114.066115,"lng":22.540385},{"city":"深圳","address":"深圳市南山区文心五路33号海岸城购物广场三层311店铺","title":"深圳海岸城","lat":113.943197,"lng":22.522026},{"city":"深圳","address":"深圳市罗湖区太宁路百仕达吉之岛旁边喜荟城1楼117号","title":"深圳喜荟城","lat":114.147757,"lng":22.573602},{"city":"深圳","address":"深圳市福田区华强北振兴路55号紫荆城一层","title":"深圳华强紫荆城","lat":114.094783,"lng":22.55225},{"city":"深圳","address":"深圳市宝安南路1881号华润中心万象城2楼NOVO","title":"深圳万象城NOVO","lat":114.117812,"lng":22.546084},{"city":"深圳","address":"深圳市福田区华强北华强路茂业百货4楼","title":"深圳华强北茂业","lat":114.09316,"lng":22.551132},{"city":"深圳","address":"深圳市罗湖区人民南路2028号金光华广场地下一楼","title":"深圳金光华","lat":114.12605,"lng":22.545817},{"city":"深圳","address":"深圳市罗湖区深南东路5016号蔡屋围京基金融中心百纳KK MALL-NOVO3楼","title":"深圳KK MALL","lat":114.113626,"lng":22.55084},{"city":"深圳","address":"深圳市罗湖区东门中路茂业百货三楼","title":"深圳东门茂业","lat":114.127312,"lng":22.55321},{"city":"深圳","address":"深圳市福田区福华三路星河国际花园君尚百货二楼","title":"深圳CBD天虹","lat":114.126827,"lng":22.55377},{"city":"深圳","address":"深圳市罗湖区建设路3018号1234space二楼L205号","title":"深圳华润1234SPACE","lat":113.900653,"lng":22.7864},{"city":"深圳","address":"深圳福田区福华三路118号皇庭国商购物广场G层15、16号","title":"深圳皇庭广场","lat":114.06612,"lng":22.538699},{"city":"广州","address":"广州市越秀区环市东路369号3楼","title":"广州友谊","lat":113.294224,"lng":23.142946},{"city":"广州","address":"广州市农林下路40号 广州王府井百货4楼","title":"广州王府井","lat":113.3045,"lng":23.135719},{"city":"广州","address":"广州市天河区天河路230号万菱汇L1层008-009铺","title":"广州万菱汇","lat":113.336057,"lng":23.138734},{"city":"广州","address":"广州市白云区云城东路509号白云万达广场一层155-156号","title":"广州万达","lat":113.273348,"lng":23.178698},{"city":"广州","address":"广州市天河路228号正佳广场北门A108铺","title":"广州正佳广场NOVO ","lat":113.333813,"lng":23.138485},{"city":"广州","address":"广州市海珠区工业大道北106-108号B1层S55、S56、S57号商铺","title":"广州乐峰","lat":113.265947,"lng":23.095368},{"city":"广州","address":"广州市越秀区中山三路33号中华广场负一层A8号商铺","title":"广州中华广场负一层","lat":113.28863,"lng":23.131747},{"city":"济南","address":"济南市泺源大街66号 银座商城4楼","title":"济南银座商城","lat":117.03597,"lng":36.665695},{"city":"济南","address":"山东省济南市历下区泉城路188号恒隆广场373A铺位","title":"济南恒隆广场","lat":117.030382,"lng":36.670595},{"city":"济南","address":"山东省济南市市中区经四路万达广场商业步行街157/158号铺 ","title":"济南万达","lat":117.008428,"lng":36.668387},{"city":"重庆","address":"重庆市江北区北城天街6、8号龙湖北城天街购物广场新馆2F14","title":"重庆龙湖北城天街","lat":106.540381,"lng":29.581997},{"city":"重庆","address":"重庆市沙坪坝区双巷子9号凯瑞百货2楼","title":"重庆新世纪百货凯瑞商都","lat":106.469071,"lng":29.564542},{"city":"重庆","address":"重庆市渝中区邹容路68号重庆大都会广场太平洋百货二楼","title":"重庆太平洋百货","lat":106.58555,"lng":29.563389},{"city":"重庆","address":"重庆市江北区北城天街10号远东百货2楼","title":"重庆远东太平洋","lat":106.539917,"lng":29.584455},{"city":"重庆","address":"重庆市南岸区江南大道28号G层033号铺位","title":"重庆星光时代广场","lat":106.577853,"lng":29.529717},{"city":"重庆","address":"重庆市江北区观音桥建新北路1号新世纪百货世纪新都4F","title":"重庆世纪新都DA","lat":106.539129,"lng":29.579374},{"city":"重庆","address":"重庆市沙坪坝区小新街49号王府井百货2F","title":"重庆沙坪坝王府井","lat":106.470549,"lng":29.563464},{"city":"重庆","address":"重庆市九龙坡区杨家坪正街26号斌鑫世纪城新世纪百货瑞成商都2F ","title":"重庆瑞成商都","lat":106.521768,"lng":29.517327},{"city":"重庆","address":"重庆市渝中区长江2路174号龙湖时代天街A区2层08、09号","title":"重庆时代天街","lat":106.5178,"lng":29.544636}] 