[{"category":"d'zzit","city":"Hohhot","address":"2F, Chongxin West Rd, Huimin District, Hohhot City, Inner Mongolia","title":"Hohhot Wangfujing","lat":111.672888,"lng":40.818833},{"category":"d'zzit","city":"Hohhot","address":"2F, Chongxin West Rd, Huimin District, Hohhot City, Inner Mongolia","title":"Hohhot Weiduoli Shidaicheng","lat":111.674966,"lng":40.821058},{"category":"d'zzit","city":"Hohhot","address":"4F, Chongxin West Rd, Huimin District, Hohhot City, Inner Mongolia","title":"Hohhot Weiduoli Shopping Center","lat":111.676421,"lng":40.822573},{"category":"d'zzit","city":"Hohhot","address":"1F, Wanda Plaza, Hohhot City, Inner Mongolia","title":"Hohhot Wanda","lat":111.74106,"lng":40.84264},{"category":"d'zzit","city":"Hohhot","address":"1F, Cade Mall, Saihan District, Hohhot City,Inner Mongolia","title":"Hohhot Kaide","lat":111.687271,"lng":40.803093},{"category":"d'zzit","city":"BaoTou","address":"3F, Gang Tie Da St., Kun District, Baotou City, Inner Mongolia","title":"Baotou Baobai","lat":109.822511,"lng":40.664632},{"category":"d'zzit","city":"BaoTou","address":"1F, Baotou City, Inner Mongolia","title":"Baotou Baobai Shidai","lat":109.823135,"lng":40.663852},{"category":"d'zzit","city":"ShenYang","address":"2F, No.68 Zhong Jie Rd, Shenhe District, Shenyang","title":"Shenyang Jiuguang","lat":123.45928,"lng":41.807785},{"category":"d'zzit","city":"XiAn","address":"2F, Dong Da St., Bei Lin District, Xi An City,  Shaanxi","title":"Xian Xing Zheng Yuan","lat":108.956811,"lng":34.26559},{"category":"d'zzit","city":"XiAn","address":"3F, Jie Fang Rd,Xi An city, Shaanxi","title":"Xian Minyueyuan Wanda","lat":108.971846,"lng":34.271609},{"category":"d'zzit","city":"Wulumuqi","address":"1F, No. 230 Zhong Shan Rd, Wu Lu Mu Qi","title":"Wulumuqi Yaxin Life Square","lat":87.623111,"lng":43.800193},{"category":"d'zzit","city":"GuiYang","address":"2F, Chong Hua Center Rd, Yun Yan District, Yang City","title":"Guiyang Long Gang Baisheng","lat":106.719305,"lng":26.584773},{"category":"d'zzit","city":"KunMing","address":"2F, Zheng Yi Rd, Kunming City, Yunnan","title":"Kunming Baida Xintiandi","lat":102.71597,"lng":25.0428},{"category":"d'zzit","city":"ZhangSha","address":"3F, Wu Yi West Rd, Kaifu District, Changsha City","title":"Zhangsha Kaifu Wanda","lat":112.981459,"lng":28.196831},{"category":"d'zzit","city":"ZhangSha","address":"4F, Huang Xing South Rd, Tianxin District, Changsha","title":"Zhangsha Wangfujing","lat":119.312744,"lng":26.097242},{"category":"d'zzit","city":"XiangTan","address":"3F, Jian She Rd, Yuetang District, Xiangtan City, Hunan","title":"Xiangtan Bubugao","lat":112.924551,"lng":27.840614},{"category":"d'zzit","city":"ZhuZhou","address":"3F, No.999 Xinhua West Rd, Lusong District, Zhuzhou City, Hunan","title":"Zhuzhou Wangfujing","lat":113.160652,"lng":27.844559},{"category":"d'zzit","city":"HaiKou","address":"2F, No. 2 Datong Road, Haikou City","title":"Haikou Youyi Shangchang","lat":110.344248,"lng":20.043336},{"category":"d'zzit","city":"ZhengZhou","address":"Huayuan Road,  Jinshui District, Zhengzhou City","title":"Zhengzhou Dashang Guomao","lat":113.688132,"lng":34.792092},{"category":"d'zzit","city":"ZhengZhou","address":"3F, Huayuan Road,  Jinshui District, Zhengzhou City","title":"Zhengzhou Huayuanlu Dannisi","lat":113.68863,"lng":34.792611},{"category":"d'zzit","city":"NanChang","address":"2F, No.177 Zhongshan Road, DongHu District,  Nanchang City,  Jiangxi","title":"Nanchang Zhongshanlu Baisheng","lat":115.89824,"lng":28.681755},{"category":"d'zzit","city":"NanChang","address":"3F, Shanghai Rd, Nanchang City","title":"Nanchang Mengshidai","lat":115.945347,"lng":28.680202},{"category":"d'zzit","city":"JiangYin","address":"1F, No. 281 Ren Min West Rd, Jiangyin City","title":"Jiangyin Wanda","lat":120.251765,"lng":31.905318},{"category":"d'zzit","city":"ChengDu","address":"2F, No.3 Ren Min South Rd Sec. 4, Chengdu City","title":"Chengdu Raffles Square","lat":104.07352,"lng":30.637437},{"category":"d'zzit","city":"ChengDu","address":"No.1 Yi Huan North Rd, Jinniu District, Chengdu City","title":"Chengdu Jinniu Wanda","lat":104.080232,"lng":30.692008},{"category":"d'zzit","city":"ChengDu","address":"3F, No. 8 Dakejia North Alley, Jinjiang District, Chengdu City","title":"Chengdu Yishidan","lat":104.08654,"lng":30.660739},{"category":"d'zzit","city":"ChengDu","address":"4F, No.8 Chunxi South Rd, Jinjiang District, Chengdu City","title":"Chengdu Qunguang","lat":104.083521,"lng":30.659612},{"category":"d'zzit","city":"ChengDu","address":"3F, No. 339 Shuanglin Road, Chenghua District, Chengdu City ","title":"Chengdu Huanlesong","lat":104.100679,"lng":30.667247},{"category":"d'zzit","city":"ChengDu","address":"4F, No. 15 Zong Fu Road, Jinjiang District, Chengdu City","title":"Chengdu Wangfujing","lat":104.086246,"lng":30.663845},{"category":"d'zzit","city":"XiaMen","address":"No. 4666 Xianyue Road, Huli District, Xiamen City","title":"Xiamen Huli Wanda","lat":118.182626,"lng":24.511333},{"category":"d'zzit","city":"XiaMen","address":"1F, No.899 Xiahe Road, Xiamen City","title":"Xiamen Luobin Commercial Plaza","lat":118.120937,"lng":24.475054},{"category":"d'zzit","city":"XiaMen","address":"No. 1015 Jimei Wanda Plaza, Xiamen City ","title":"Xiamen Jimei Wanda","lat":118.099747,"lng":24.579857},{"category":"d'zzit","city":"PuTian","address":"No. 8  Li Hua Dong Blvd,  Chengxiang District, Putian City, Fujian","title":"Putian Wanda","lat":119.004029,"lng":25.425347},{"category":"d'zzit","city":"NanNing","address":"4F, No.136 Min Zu Blvd,  Qingxiu District, Nanning City, Guangxi","title":"Nanning Wanxiangcheng ","lat":108.398348,"lng":22.81765},{"category":"d'zzit","city":"NanNing","address":"3F, No.18 Qingyun St, Chaoyang Road, Nanning City, Guangxi","title":"Nanning Parkson","lat":108.329108,"lng":22.82004},{"category":"d'zzit","city":"ZhuHai","address":"1F, Jida District, Zhuhai City, Guangdong ","title":"Zhuhai Dutyfree shop","lat":113.586696,"lng":22.262011},{"category":"d'zzit","city":"DaLian","address":"2F, No.198 JingMa Rd, KaiFa District, Dalian","title":"Dalian Maikaile","lat":121.785445,"lng":39.054686},{"category":"d'zzit","city":"DaLian","address":"3F, No.701 Gao Er Ji Rd, Shahekou District, Dalian City","title":"Dalian Peace Square","lat":121.594779,"lng":38.902512},{"category":"d'zzit","city":"DaLian","address":"4F, No.57 Qing Ni Street, Zhongshan District, Dalian City","title":"Dalian Maikaile","lat":121.641881,"lng":38.921953},{"category":"d'zzit","city":"TianJin","address":"2F, No.189 Nanjing Road, Heping District, Tianjin City","title":"Tianjin Jinlehui","lat":117.2041,"lng":39.123485},{"category":"d'zzit","city":"TianJin","address":"2F, No.108 Nanjing Road, Heping District, Tianjin City","title":"Tianjin Yishidan","lat":117.204422,"lng":39.125129},{"category":"d'zzit","city":"TianJin","address":"2F, No.668 Jiefang Rd, Tanggu District, Tianjin City","title":"Tianjin Jinyuanbao","lat":117.673515,"lng":39.022935},{"category":"d'zzit","city":"Shanghai","address":"3F, No.388 Xi Jiang Wan Rd, Hongkou District, Shanghai City","title":"ShanghaiHongkou Longzhimeng","lat":121.485625,"lng":31.276724},{"category":"d'zzit","city":"Shanghai","address":"B1, No.36 Guobin Rd, Yangpu District,  Shanghai City","title":"Shanghai Wujiaochang Wanda","lat":121.5208,"lng":31.306301},{"category":"d'zzit","city":"Shanghai","address":"B1, No.36 Guobin Rd, Yangpu District,  Shanghai City","title":"Shanghai Yuexinghuanqiu","lat":121.417832,"lng":31.237064},{"category":"d'zzit","city":"Shanghai","address":"B2, No.300 Huaihai Chong Rd, Huangpu District, Shanghai City","title":"Shanghai K11","lat":121.48065,"lng":31.229175},{"category":"d'zzit","city":"Shanghai","address":"3F, No.68 Nanjing West Road, Shanghai City","title":"Shanghai Xinshijie","lat":121.479238,"lng":31.240676},{"category":"d'zzit","city":"Shanghai","address":"4F, No.1618 Nanjing West Road, Shanghai City","title":"Shanghai Jiuguang  ","lat":121.452703,"lng":31.229839},{"category":"d'zzit","city":"Shanghai","address":"LG2, No.8 Shiji Blvd, Pudong New Area, Shanghai City","title":"Shanghai Quojin","lat":121.50966,"lng":31.241595},{"category":"d'zzit","city":"Shanghai","address":"LG2, No.999 Huaihai Zhong Road, Shanghai City","title":"Shanghai iapm","lat":121.464664,"lng":31.222188},{"category":"d'zzit","city":"WuXi","address":"Ren Ming Chong Rd, Chongan District, Wuxi City","title":"Wuxi Henglong","lat":120.303193,"lng":31.58076},{"category":"d'zzit","city":"HangZhou","address":"3F, No.98 Yanan South Road, Hangzhou City","title":"Hangzhou Xihu Yintai","lat":120.172169,"lng":30.249324},{"category":"d'zzit","city":"HangZhou","address":"LG1, No. 380 Feng Tan Rd, Gongshu District, Hangzhou City","title":"Hangzhou Chengxi Yintai","lat":120.113912,"lng":30.306951},{"category":"d'zzit","city":"SuZhou","address":"3F, No.372 Ren Ming Rd, Jiangsu Suzhou","title":"\n            ","lat":120.631024,"lng":31.296212},{"category":"d'zzit","city":"SuZhou","address":"2F, No.1699 Xian Dai Blvd, Gong Ye District, Suzhou City","title":"Suzhou Yinxiangcheng","lat":120.663806,"lng":31.322644},{"category":"d'zzit","city":"ChangZhou","address":"3F, No.7 Yanling West Road,  Changzhou City","title":"Changzhou Shopping Center","lat":119.96981,"lng":31.781019},{"category":"d'zzit","city":"ChangZhou","address":"3F, No.1 Nan Da Street, Changzhou City","title":"Changzhou Department Store","lat":119.960502,"lng":31.78207},{"category":"d'zzit","city":"BeiJing","address":"5F, No. 176 Xidan North Street, Xicheng District, Beijing City","title":"Beijing Hanguang ","lat":116.381304,"lng":39.915444},{"category":"d'zzit","city":"BeiJing","address":"3F, No.1 Nanda , Dongcheng District, Beijing City","title":"Raffles","lat":116.438717,"lng":39.946193},{"category":"d'zzit","city":"BeiJing","address":"3F, No.138 Wangfujing Da street, Dongcheng District, Beijing City","title":"Xindongan","lat":116.418119,"lng":39.921469},{"category":"d'zzit","city":"BeiJing","address":"2F, No.18 Chong Wai Da Street, Chongwen District, Beijing City","title":"Guoruicheng","lat":116.425551,"lng":39.904922},{"category":"d'zzit","city":"BeiJing","address":"2F, No.68 Qinghe Chong Street, Haidian District, Beijing City","title":"Wucaicheng","lat":116.340427,"lng":40.036525},{"category":"d'zzit","city":"BeiJing","address":"3F, No.9 Guanghua Road, Chaoyang District, Beijing City","title":"Shimao Tianjie","lat":116.457331,"lng":39.922078},{"category":"d'zzit","city":"BeiJing","address":"1F, NanHuan Road, Changping District, Beijing City","title":"Beijing Jinyuwanke","lat":116.241194,"lng":40.218005},{"category":"d'zzit","city":"BeiJing","address":"6F, No.101 Fuxing Gate Avenue, Beijing City","title":"Beijing Parkson","lat":116.365192,"lng":39.913701},{"category":"d'zzit","city":"WuHan","address":"4F, No.688 Jiefang Blvd, Wuhan City","title":"Wuhan Square","lat":114.27642,"lng":30.586659},{"category":"d'zzit","city":"WuHan","address":"Shui Guo Hu Han Street, Wuchang District,Wuhan City","title":"Wuhan Wandahan Street","lat":114.34904,"lng":30.56142},{"category":"d'zzit","city":"WuHan","address":"2F, No.242 Zhongshan Blvd, Qiaokou District, Wuhan City, Hubei","title":"Wuahn Kaide","lat":114.274401,"lng":30.574984},{"category":"d'zzit","city":"WuHan","address":"3F, No.756 Zhongshan Road, Wuhan City","title":"Wuhan Zhongshan Dayang","lat":114.296731,"lng":30.583869},{"category":"d'zzit","city":"WuHan","address":"2F, No.3 Guang Gu Street, Wuhan City","title":"Wuhan Guanggu Dayang","lat":114.408558,"lng":30.512141},{"category":"d'zzit","city":"YiChang","address":"3F, No.56 Yi Lin Blvd, Xiling District, Yichang City,  Hubei","title":"Yichang Dayang","lat":111.298803,"lng":30.713658},{"category":"d'zzit","city":"WenZhou","address":"4F, JieFang South Road, Wenzhou City","title":"Wenzhou Yintai","lat":120.671304,"lng":28.01219},{"category":"d'zzit","city":"WenZhou","address":"2F, RenMin Road, Wenzhou City","title":"Wenzhou Kaitai","lat":120.669757,"lng":28.016727},{"category":"d'zzit","city":"WenZhou","address":"3F, Che Zhan Blvd, Wenzhou City","title":"Wenzhou Shidai","lat":120.69078,"lng":28.004178},{"category":"d'zzit","city":"WenZhou","address":"1F, No.1188 Yongding Road, Longwan District, Wenzhou City","title":"Wenzhou Longwan Wanda","lat":120.818038,"lng":27.925786},{"category":"d'zzit","city":"JinHua","address":"4F, No.168 JieFang East Road, Wucheng District, Jinhua City, Zhejiang","title":"Jinhua Yintai Tiandi","lat":119.660843,"lng":29.109723},{"category":"d'zzit","city":"NingBo","address":"2F, No.188 Zhongshan East Road, Haishu District, Ningbo City","title":"Ningbo Yintai","lat":121.561715,"lng":29.876973},{"category":"d'zzit","city":"NingBo","address":"L2, No.99 Daqing South Road, Jiangbei District, Ningbo City","title":"Ningbo Raffles","lat":121.56401,"lng":29.887839},{"category":"d'zzit","city":"NingBo","address":"No.43 You Ying Alley, Ningbo City","title":"Ningbo Kugou","lat":121.559107,"lng":29.874789},{"category":"d'zzit","city":"ShenZhen","address":"3F, No.86 Taoyuan Road, Nanshan District, Shenzhen city ","title":"Shenzhen Nanshan Tianhong","lat":113.928905,"lng":22.538699},{"category":"d'zzit","city":"ShenZhen","address":"4F, Huaqiang North Road, Futian District, Shenzhen City","title":"Shenzhen Huaqiang Maoye","lat":114.092995,"lng":22.551216},{"category":"d'zzit","city":"ShenZhen","address":"2F, No.2001 Jiefang Road, Luohu District, Shenzhen City","title":"Shenzhen Taiyang Square","lat":114.124519,"lng":22.551883},{"category":"d'zzit","city":"ShenZhen","address":"4F, Dong Men Chong Road, Luohu District, Shenzhen City","title":"Shenzhen Dongmen Maoye","lat":114.12786,"lng":22.553569},{"category":"d'zzit","city":"ShenZhen","address":"No.55 Hua Qiang Bei Zhen Xing Road, Futian District, Shenzhen City","title":"Shenzhen Zijingcheng Huaqiang","lat":114.096279,"lng":22.552409},{"category":"d'zzit","city":"ShenZhen","address":"2F, No. 1881 Baoan South Road, Shenzhen City","title":"Shenzhen NOVO","lat":114.117659,"lng":22.545959},{"category":"d'zzit","city":"ShenZhen","address":"4F, Wen Xin Second Road, Nanshan District, Shenzhen","title":"Shenzhen Nanshan Maoye","lat":113.936868,"lng":22.524987},{"category":"d'zzit","city":"ShenZhen","address":"3F, No.3018 Jianshe Road, Luohu District, Shenzhen City ","title":"Shenzhen Huarun 1234SPACE","lat":114.122996,"lng":22.550982},{"category":"d'zzit","city":"ShenZhen","address":"1F, No.118 Fuhua Third Road, Futian District, Shenzhen","title":"Shenzhen Huangting Square","lat":114.066883,"lng":22.538624},{"category":"d'zzit","city":"GuangZhou","address":"L1, No.230 Tianhe Road, Tianhe District, Guangzhou City","title":"Guangzhou Wanlinghui","lat":113.336057,"lng":23.138734},{"category":"d'zzit","city":"GuangZhou","address":"B1, No.106 Gong Yei Blvd, Haizhu District, Guangzhou City","title":"Guangzhou Lefeng","lat":113.266648,"lng":23.095202},{"category":"d'zzit","city":"GuangZhou","address":"No. 228 is good Plaza North Gate A104, shop A105, Tianhe Road, Guangzhou City","title":"Guangzhou Zhengjia NOVO ","lat":113.333813,"lng":23.138485},{"category":"d'zzit","city":"QingDao","address":"3F, No.69 Hongkong Chong Road, Qingdao City","title":"Qingdao Maikaile","lat":120.409562,"lng":36.0714},{"category":"d'zzit","city":"ChongQing","address":"3F, Longhu North Street, Jiangbei District, Chongqing City","title":"Chongqing Beichengtianjie","lat":106.540077,"lng":29.582934},{"category":"d'zzit","city":"ChongQing","address":"LG2, No.28 Jiangnan Blvd, Nanan District, Chongqing City","title":"Chongqing Xiexin Time Square","lat":106.584193,"lng":29.5637},{"category":"d'zzit","city":"ChongQing","address":"2F, No.9 Shuang Alley, Shapingba District, Chongqing City","title":"Chongqing Kairui","lat":106.470547,"lng":29.563322},{"category":"d'zzit","city":"ChongQing","address":"2F, No.174 Chang Jiang Second Road, Yuzhong District, Chongqing City","title":"Chongqing Shidai Tianjie","lat":106.5178,"lng":29.544636},{"category":"d'zzit","city":"FuZhou","address":"4F, No.133 Ba Yi Chi North Road, Gulou District, Fuzhou City, Fujian","title":"Fuzhou Dayang","lat":119.306763,"lng":26.091408},{"category":"d'zzit","city":"FuZhou","address":"1F, No.276 Pu Shang Blvd, Cangshan District, Fuzhou City","title":"Fuzhou Wanda Cangshan","lat":119.280799,"lng":26.041469},{"category":"d'zzit","city":"FuZhou","address":"2F, No.84 BaYiChi North Road, GuLou District, Fuzhou City, Fujian","title":"Fuzhou Dongbai","lat":119.305881,"lng":26.091352},{"category":"d'zzit","city":"FuZhou","address":"4F, No.128 GuLouWuSi Road, Gulou District, Fuzhou City, Fujian","title":"Fuzhou Wanfujing","lat":119.312376,"lng":26.098077},{"category":"d'zzit","city":"FuZhou","address":"2F, No.6 Ban Chong Road, Jinan District, Fuzhou City, Fujian","title":"Fuzhou Taihe","lat":119.332378,"lng":26.14483},{"category":"diamond dazzle","city":"XiAn","address":"2F, No.37  Ke Ji Road, Gao Xin Di District, XiAn","title":"Golden Eagle","lat":108.907817,"lng":34.238317},{"category":"diamond dazzle","city":"GuiYang","address":"3F, Modern Capital, GuiYang","title":"Modern Capital","lat":106.718262,"lng":26.58984},{"category":"diamond dazzle","city":"NanChang","address":"2F, Fortune Plaza, NanChang","title":"Fortune Plaza","lat":115.910485,"lng":28.683854},{"category":"diamond dazzle","city":"ChengDu","address":"3F, Ren He Spring Department Store, ChengDu","title":"Ren He Spring Department Store","lat":104.026371,"lng":30.668864},{"category":"diamond dazzle","city":"ChengDu","address":"2F, No.5 Ke Hua Zhong Road, Wu Hou District, ChengDu","title":"WangFuJing Department Store","lat":104.082635,"lng":30.624502},{"category":"diamond dazzle","city":"QingDao","address":"2F, No.38 Xiang Gang Zhong Road, QingDao","title":"Sunshine Department Store","lat":120.3971,"lng":36.0709},{"category":"diamond dazzle","city":"HaiKou","address":"2F, MinSheng Department Store, HaiKou","title":"MinSheng Department Store","lat":110.352278,"lng":20.034558},{"category":"diamond dazzle","city":"DaLian","address":"2F, No.57 Qing Ni Street, Zhong Shan District, DaLian","title":"MYKAL","lat":121.643198,"lng":38.921392},{"category":"diamond dazzle","city":"ShenYang","address":"1F, No.128 Zhong Jie Road, Shen He District, ShenYang","title":"CENTER 66","lat":123.440846,"lng":41.806286},{"category":"diamond dazzle","city":"TianJin","address":"L2, Galaxy Mall, Shen He District, TianJin","title":"Galaxy Mall","lat":117.219893,"lng":39.096847},{"category":"diamond dazzle","city":"Shanghai","address":"4F, No.1038 Nan Jing West Road, ShangHai","title":"Westgate Mall","lat":121.463345,"lng":31.235018},{"category":"diamond dazzle","city":"Shanghai","address":"L1, No.3300 Zhong Shan East Road, ShangHai","title":"Global Harbor","lat":121.417976,"lng":31.236612},{"category":"diamond dazzle","city":"KunMing","address":"2F, No.131 Bai Ta Road, KunMing","title":"Huidu International Plaza","lat":102.732183,"lng":25.0419},{"category":"diamond dazzle","city":"HangZhou","address":"2F, No.530 Yan An Road, HangZhou","title":"Intime Department Store(WuLin)","lat":120.17021,"lng":30.273841},{"category":"diamond dazzle","city":"ChangZhou","address":"No.95-97 Yan Ling West Road, Zhong Lou District, ChangZhou","title":"Tai Fu Plaza","lat":119.856269,"lng":31.792651},{"category":"diamond dazzle","city":"JiangYin","address":"2F, No.85 Ren Min Zhong Road, JiangYin","title":"HuaLian Commercial","lat":120.278469,"lng":31.911197},{"category":"diamond dazzle","city":"BeiJing","address":"3F, No.87 Jian Guo Road, Zhao Yang District, BeiJing","title":"Shin Kong Place","lat":116.484893,"lng":39.915465},{"category":"diamond dazzle","city":"WenZhou","address":"3F, Jie Fang South Road, WenZhou","title":"Intime Department Store(WenZhou)","lat":120.632693,"lng":27.785044},{"category":"diamond dazzle","city":"WenZhou","address":"2F, Times Square, WenZhou","title":"Times Square","lat":120.690787,"lng":28.005367},{"category":"diamond dazzle","city":"JinHua","address":"2F, No.168 Jie Fang East Road, Wu Cheng District,J in Hua","title":"Intime Department Store(JinHua)","lat":119.661687,"lng":29.109699},{"category":"diamond dazzle","city":"ShenZhen","address":"1F, COCO PARK, ShenZhen","title":"COCO PARK","lat":114.062596,"lng":22.538724},{"category":"diamond dazzle","city":"GuangZhou","address":"1F, No.208 Tian He Road, Tian He District, GuangZhou","title":"TEE MALL","lat":113.33,"lng":23.139225},{"category":"diamond dazzle","city":"GuangZhou","address":"No.383 Tian He Road, GuangZhou","title":"TaiKoo Hui","lat":113.338836,"lng":23.139322},{"category":"diamond dazzle","city":"ChongQing","address":"L2, No.68 Jian Xin North Road, Jiang Bei District, ChongQing","title":"STAR 68 LIGHT","lat":106.537925,"lng":29.584077},{"category":"diamond dazzle","city":"FuZhou","address":"2F, Grand Ocean(No.1), Gu Lou District, FuZhou","title":"Grand Ocean(No.1)","lat":119.305639,"lng":26.081718},{"category":"dazzle","city":"ZhangChun","address":"3F, No.1128 Gong Nong Da Road, ChangChun","title":"Chang Chun Eurasia","lat":125.306284,"lng":43.876499},{"category":"dazzle","city":"TaiYuan","address":"3F, No.99 Qin Xian Street, TaiYuan","title":"WangFuJing Department Store","lat":112.566085,"lng":37.829601},{"category":"dazzle","city":"TaiYuan","address":"3F, No.116 Chang Feng Street, TaiYuan","title":"Fashion Walk","lat":112.568703,"lng":37.823387},{"category":"dazzle","city":"Haerbin","address":"3F, No.378 Guo Ge Li Street, Harbin","title":"Grand Shopping Center","lat":126.65115,"lng":45.766373},{"category":"dazzle","city":"Hohhot","address":"2F, XinHua East Street, Hohhot","title":"Victory Plaza","lat":111.704101,"lng":40.833996},{"category":"dazzle","city":"Hohhot","address":"1F, WanDa Plaza, Hohhot","title":"WanDa Plaza","lat":111.742458,"lng":40.842858},{"category":"dazzle","city":"Hohhot","address":"4F, Zhong Shan West Road, Hohhot","title":"Victory Shopping Center","lat":111.676451,"lng":40.822532},{"category":"dazzle","city":"ShenYang","address":"2F, No.1 Xiao Dong Road, DaDong District, ShenYang","title":"New Mart","lat":123.471124,"lng":41.807798},{"category":"dazzle","city":"ShenYang","address":"3F, No.88 Zhong Hua Road,HePing District, ShenYang","title":"New World Department Store","lat":123.409022,"lng":41.797789},{"category":"dazzle","city":"ShenYang","address":"3F, No.86 Tai Yuan North Street, HePing District, ShenYang","title":"Zhong Xing Shen Yang Commercial Building","lat":123.407635,"lng":41.799208},{"category":"dazzle","city":"TangShan","address":"4F, Phoenix Shopping Square, TangShan","title":"Phoenix Shopping Square","lat":118.167389,"lng":39.639165},{"category":"dazzle","city":"TangShan","address":"1F, WanDa Plaza, TangShan","title":"WanDa Plaza","lat":118.191401,"lng":39.631303},{"category":"dazzle","city":"XiAn","address":"3F, Parkson, Xi'an","title":"Parkson","lat":108.945825,"lng":34.268491},{"category":"dazzle","city":"XiAn","address":"1F, Zheng Xing Yuan Plaza, Xi'an","title":"Zheng Xing Yuan Plaza","lat":108.956805,"lng":34.265582},{"category":"dazzle","city":"XiAn","address":"4F, Gao Xin Road,Gao Xin District, Xi'an","title":"Golden Eagle","lat":108.909279,"lng":34.238556},{"category":"dazzle","city":"XiAn","address":"B1, Kai Yuan Shopping Mall, Xi'an","title":"Kai Yuan Shopping Mall","lat":108.954672,"lng":34.265038},{"category":"dazzle","city":"Wulumuqi","address":"2F, Parkson, Urumqi","title":"Parkson","lat":87.60673,"lng":43.810856},{"category":"dazzle","city":"LanZhou","address":"5F, GuoFang Store, LanZhou","title":"GuoFang Store","lat":103.847137,"lng":36.058811},{"category":"dazzle","city":"YanTai","address":"2F, No.8 West Street, Zhi Fu District, YanTai","title":"Zhenhua Department Store","lat":121.391001,"lng":37.54733},{"category":"dazzle","city":"XiaMen","address":"2F, No.399 Jia He Road, XiaMen","title":"Lifestyle Center","lat":118.132144,"lng":24.504552},{"category":"dazzle","city":"XiaMen","address":"1F, WanDa Plaza, XiaMen","title":"WanDa Plaza","lat":118.182626,"lng":24.511333},{"category":"dazzle","city":"FuShan","address":"2F, No.42 Zu Miao Road, Chan Cheng District, FoShan","title":"Xing Hua Shopping Mall","lat":113.117814,"lng":23.03205},{"category":"dazzle","city":"FuZhou","address":"4F, Grand Ocean, GuLou District, FuZhou","title":"Grand Ocean","lat":119.306607,"lng":26.090144},{"category":"dazzle","city":"FuZhou","address":"B1, Ao Feng Road, Tai Jiang District, FuZhou","title":"WanDa Plaza","lat":119.350089,"lng":26.059262},{"category":"dazzle","city":"FuZhou","address":"1F, WanDa Plaza, CangShan District, FuZhou","title":"Cang Shan WanDa Plaza","lat":119.280558,"lng":26.041631},{"category":"dazzle","city":"GuiLin","address":"2F, NO.37 Zhong Shan Zhong Road, Xiu Feng District, GuiLin","title":"Niko Niko Do Plaza","lat":110.300684,"lng":25.28415},{"category":"dazzle","city":"GuiYang","address":"2F, GuoChen Fashion, GuiYang","title":"GuoChen Fashion","lat":106.714092,"lng":26.582885},{"category":"dazzle","city":"GuiYang","address":"3F, Flora Plaza, GuiYang","title":"Flora Plaza","lat":106.719249,"lng":26.588108},{"category":"dazzle","city":"KunMing","address":"2F, Brilliant Plaza, No.6 SanShi Road, KunMing","title":"Parkson","lat":102.717321,"lng":25.04185},{"category":"dazzle","city":"KunMing","address":"2F, Dong Feng West Road, KunMing","title":"ShunCheng Shopping Mall","lat":102.71445,"lng":25.042382},{"category":"dazzle","city":"ZhangSha","address":"2F, Wu Yi Road, Tian Xin District, ChangSha","title":"HEIWADO","lat":112.983999,"lng":28.199804},{"category":"dazzle","city":"ZhangSha","address":"4F, Huang Xing South Road, Tian Xin District, ChangSha","title":"WangFuJing Department Store","lat":112.983008,"lng":28.197742},{"category":"dazzle","city":"ZhangSha","address":"5F, Friendship shop, ChangSha","title":"Friendship Shop","lat":113.004298,"lng":28.2006},{"category":"dazzle","city":"ChengDu","address":"2F, ISETAN, ChengDu","title":"ISETAN","lat":104.085958,"lng":30.660219},{"category":"dazzle","city":"ChengDu","address":"2F, No.6 Yi Du Road, ChengDu","title":"ShuangNan Ito Yokado","lat":104.027076,"lng":30.652133},{"category":"dazzle","city":"ChengDu","address":"4F, No.15 Zong Fu Road, ChengDu","title":"WangFuJing Department Store","lat":104.086691,"lng":30.6648},{"category":"dazzle","city":"ChengDu","address":"2F, Cheng Ren Road, Ito Yokado, ChengDu","title":"JinHua Ito Yokado","lat":104.102906,"lng":30.626709},{"category":"dazzle","city":"ChengDu","address":"2F, No.5 Ke Hua Zhong Road, Wu Hou District, ChengDu","title":"WangFuJing Department Store(NO.2)","lat":104.083106,"lng":30.625582},{"category":"dazzle","city":"ChengDu","address":"1F, Jin Niu WanDa Plaza, ChengDu","title":"Jin Niu WanDa Plaza","lat":104.081654,"lng":30.692245},{"category":"dazzle","city":"ChengDu","address":"1F, No.339 Shuang Lin Road, Cheng Hua District, ChengDu","title":"339 Fun Grand","lat":104.100093,"lng":30.666265},{"category":"dazzle","city":"ZhuZhou","address":"1F, HEIWADO, ZhuZhou","title":"HEIWADO(No.3)","lat":113.158619,"lng":27.839823},{"category":"dazzle","city":"ZhuZhou","address":"3F, No.999 Xin Hua West Road, Lu Song District, ZhuZhou","title":"WangFuJing Department Store","lat":113.159976,"lng":27.844638},{"category":"dazzle","city":"ZhuZhou","address":"5F, Jian She Road, Lu Song District, ZhuZhou","title":"ZhuZhou Departmen Store","lat":113.149634,"lng":27.853915},{"category":"dazzle","city":"NanChang","address":"2F, No.177 Zhong Shan Road, NanChang","title":"Parkson","lat":115.898932,"lng":28.681137},{"category":"dazzle","city":"NanChang","address":"No.999 Hui Zhan Road, NanChang","title":"WanDa Plaza","lat":115.855733,"lng":28.697242},{"category":"dazzle","city":"NanChang","address":"2F, No.1 Zhong Shan Road, NanChang","title":"NanChang Department Store","lat":115.909501,"lng":28.681889},{"category":"dazzle","city":"ZhengZhou","address":"2F, Hua Yuan Road, ZhengZhou","title":"New Mart(Guo Mao Store)","lat":113.688005,"lng":34.791217},{"category":"dazzle","city":"ZhengZhou","address":"2F, Kingbird City, ZhengZhou","title":"Kingbird City","lat":113.672114,"lng":34.760373},{"category":"dazzle","city":"ZhengZhou","address":"3F, DENNIS(Garden Store), ZhengZhou","title":"DENNIS(Garden Store)","lat":113.687646,"lng":34.7922},{"category":"dazzle","city":"ZhengZhou","address":"B1, No.2 Ren Min Road, ZhengZhou","title":"DENNIS(Ren Min Road Store)","lat":113.681499,"lng":34.762783},{"category":"dazzle","city":"JiangYin","address":"3F, No.85 Ren Min Zhong Road, JiangYin","title":"HuaLian Commercial","lat":120.278494,"lng":31.911802},{"category":"dazzle","city":"JiangYin","address":"1F, No.281 Ren Min West Road, JiangYin","title":"WanDa Plaza","lat":120.249465,"lng":31.905633},{"category":"dazzle","city":"QingDao","address":"3F, No.38 Xiang Gang Zhong Road, QingDao","title":"Sunshine Department Store","lat":120.3971,"lng":36.0709},{"category":"dazzle","city":"QingDao","address":"2F, No.69 Xiang Gang Zhong Road, QingDao","title":"MYKAL","lat":120.409562,"lng":36.0714},{"category":"dazzle","city":"QingDao","address":"F1--58/59, Marina City, QinDao","title":"Marina City","lat":120.401646,"lng":36.065791},{"category":"dazzle","city":"QingDao","address":"1F, No.72 Xiang Gang Zhong Road, QingDao","title":"JUSCO","lat":120.402978,"lng":36.070506},{"category":"dazzle","city":"QingDao","address":"1F, No.116 Yan Ji Road, QingDao","title":"WanDa Plaza","lat":120.362441,"lng":36.087625},{"category":"dazzle","city":"NanNing","address":"2F, Dream Island Departmen Store, NanNing","title":"Dream Island Departmen Store","lat":108.342422,"lng":22.819549},{"category":"dazzle","city":"NanNing","address":"3F, No.18 Zhao Yang Road, Parkson, NanNing","title":"Parkson","lat":108.329091,"lng":22.821131},{"category":"dazzle","city":"NanNing","address":"4F, The Mixc Mall, NanNing","title":"The Mixc Mall","lat":108.398699,"lng":22.818399},{"category":"dazzle","city":"DaLian","address":"3F, No.57 Qing Ni Street, Zhong Shan District, DaLian","title":"MYKAL","lat":121.643198,"lng":38.921392},{"category":"dazzle","city":"DaLian","address":"2F, No.1 Qing Shan Street, DaLian","title":"New Mart","lat":121.641028,"lng":38.92095},{"category":"dazzle","city":"DaLian","address":"2F, No.123 Xi An Road, He Kou District, DaLian","title":"MYKAL(No.2)","lat":121.593061,"lng":38.919728},{"category":"dazzle","city":"DaLian","address":"1F, No.500 Huang Pu Road, Gao Xin District, DaLian","title":"WanDa Plaza","lat":121.53941,"lng":38.867334},{"category":"dazzle","city":"ShiJiaZhuang","address":"2F, No.188 Zhong Shan East Road, ShiJiaZhuang","title":"BeiGuo Commercial Building","lat":114.516865,"lng":38.048852},{"category":"dazzle","city":"ShiJiaZhuang","address":"4F, Future Mall, ShiJiaZhuang","title":"Future Mall","lat":114.53405,"lng":38.048226},{"category":"dazzle","city":"TianJin","address":"2F, No.108 NanJing Road, He Ping District, TianJin","title":"ISETAN","lat":117.204242,"lng":39.124849},{"category":"dazzle","city":"TianJin","address":"2F, No.668 Jie Fang Road, Tang Gu District, TianJin","title":"G-Yuan Bao","lat":117.673901,"lng":39.02269},{"category":"dazzle","city":"TianJin","address":"L3-036, Galaxy Mall, TianJian","title":"Galaxy Mall","lat":117.219893,"lng":39.096849},{"category":"dazzle","city":"Shanghai","address":"2F, No.1000 Zhao Jia Bang Road, XuHui District, Shanghai","title":"Hui Jin Department store","lat":121.445773,"lng":31.201287},{"category":"dazzle","city":"Shanghai","address":"3F, No.268 Xi Zang Zhong Road, Shanghai","title":"Raffles City","lat":121.483977,"lng":31.237588},{"category":"dazzle","city":"Shanghai","address":"4F, No.1618 NanJingXi Road, Shanghai","title":"Jiu Guang Department Store","lat":121.452703,"lng":31.229839},{"category":"dazzle","city":"Shanghai","address":"1F, No.889 Wan Hang Du Road, Shanghai","title":"889 Plaza","lat":121.434677,"lng":31.23569},{"category":"dazzle","city":"Shanghai","address":"3F, No.501 ZhangYang Road, PuDong District, Shanghai","title":"Yaohan","lat":121.524241,"lng":31.233587},{"category":"dazzle","city":"Shanghai","address":"3F, No.3300 Zhong Shan Bei Road, Shanghai","title":"Global Harbor","lat":121.417976,"lng":31.236612},{"category":"dazzle","city":"Shanghai","address":"3F, No. 168 Lu Jia Zui Road , PuDong District, Shanghai","title":"Super Brand Mall","lat":121.506718,"lng":31.242652},{"category":"dazzle","city":"Shanghai","address":"4F, No.1 Hong Qiao Road, Shanghai","title":"Grand Gateway 66","lat":121.443759,"lng":31.20212},{"category":"dazzle","city":"WuXi","address":"3F, No.343 Zhong Shan Road, WuXi","title":"Wu Xi Commercial Mansion","lat":120.307178,"lng":31.582175},{"category":"dazzle","city":"WuXi","address":"4F, No.168 Zhong Shan Road, WuXi","title":"Wu Xi Yao Han","lat":120.309433,"lng":31.577506},{"category":"dazzle","city":"WuXi","address":"4F, Ren Min Zhong Road, Chong An District, WuXi","title":"CENTER 66","lat":120.313447,"lng":31.577914},{"category":"dazzle","city":"HangZhou","address":"4F, No.530 Yan An Road, HangZhou","title":"Intime Department Store(WuLin)","lat":120.17021,"lng":30.273841},{"category":"dazzle","city":"HangZhou","address":"B1, Intime Department Store(ChengXi), HangZhou","title":"Intime Department Store(ChengXi)","lat":120.113898,"lng":30.306111},{"category":"dazzle","city":"NanJing","address":"5F, No.18 Zhong Shan Road, NanJing","title":"DeJi Plaza","lat":118.790926,"lng":32.048894},{"category":"dazzle","city":"NanJing","address":"3F, No.122 Zhong Shan South Road, NanJing","title":"Grand Ocean","lat":118.790475,"lng":32.044172},{"category":"dazzle","city":"SuZhou","address":"3F, No.372 Ren Min Road, SuZhou","title":"SuZhou Tower","lat":120.630912,"lng":31.29649},{"category":"dazzle","city":"SuZhou","address":"3F, No.245 Guan Qian Street, Ping Jiang District, SuZhou","title":"MATRO(No.2)","lat":120.62812,"lng":31.316741},{"category":"dazzle","city":"ChangZhou","address":"No.95-97 Yan Ling West Road, Zhong Lou District, ChangZhou","title":"Tai Fu Plaza","lat":119.963278,"lng":31.784741},{"category":"dazzle","city":"ChangZhou","address":"3F, No.1-7 Yan Ling West Road, ChangZhou","title":"Chang Zhou Shopping Center","lat":119.969487,"lng":31.78088},{"category":"dazzle","city":"BeiJing","address":"4F, Grand Pacific Mall, BeiJing","title":"Grand Pacific Mall","lat":116.37948,"lng":39.915763},{"category":"dazzle","city":"BeiJing","address":"3F, Raffles City, BeiJing","title":"Raffles City","lat":116.438717,"lng":39.946193},{"category":"dazzle","city":"BeiJing","address":"1F, No.1 Chang An Street, Dong Cheng District, BeiJing","title":"The Malls At Oriental Plaza","lat":116.41844,"lng":39.916046},{"category":"dazzle","city":"BeiJing","address":"4F, No.33 Fu Xing Road, Hai Dian District, BeiJing","title":"Cui Wei Department Store","lat":116.309832,"lng":39.914144},{"category":"dazzle","city":"BeiJing","address":"1F, EC Mall, BeiJing","title":"EC Mall","lat":116.32153,"lng":39.985207},{"category":"dazzle","city":"BeiJing","address":"2F, No.1 Yuan Da Road, Hai Dian District, BeiJing","title":"New YanSha Mall","lat":116.296851,"lng":39.964417},{"category":"dazzle","city":"BeiJing","address":"3F, No.101 Zhao Yang North Road, Zhao Yang District, BeiJing","title":"Joy City","lat":116.526091,"lng":39.930508},{"category":"dazzle","city":"BeiJing","address":"2F, No.9 Guang Hua Road, Zhao Yang District, BeiJing","title":"The Place","lat":116.459614,"lng":39.922555},{"category":"dazzle","city":"BeiJing","address":"2F, No.San Huan Zhong Road, Zhao Yang District, BeiJing","title":"Fu Li City","lat":116.467515,"lng":39.899546},{"category":"dazzle","city":"BeiJing","address":"3F, No.138 Wang Fu Jin Street, Dong Cheng District, BeiJing","title":"BeiJing APM","lat":116.418829,"lng":39.920211},{"category":"dazzle","city":"BeiJing","address":"L152, Dream Port, BeiJing","title":"Dream Port","lat":116.339113,"lng":40.036553},{"category":"dazzle","city":"BeiJing","address":"1F, Oriental Ginza, BeiJing","title":"Oriental Ginza","lat":116.442037,"lng":39.945453},{"category":"dazzle","city":"BeiJing","address":"5F, Parkson, BeiJing","title":"Parkson","lat":116.3645,"lng":39.914441},{"category":"dazzle","city":"WuHan","address":"3F, No.688 Jie Fang Street, WuHan","title":"WuHan Plaza","lat":114.276123,"lng":30.586924},{"category":"dazzle","city":"WuHan","address":"2F, No.6 Luo Yu Road, Hong Shan District, WuHan","title":"Chicony","lat":114.361734,"lng":30.531943},{"category":"dazzle","city":"WuHan","address":"J3-2-4, WanDa Plaza, WuHan","title":"WanDa Plaza","lat":114.344743,"lng":30.562586},{"category":"dazzle","city":"WenZhou","address":"4F, Jie Fang South Road, WenZhou","title":"Intime Department Store","lat":120.632693,"lng":27.785044},{"category":"dazzle","city":"WenZhou","address":"No.103 Da Nan Road, WenZhou","title":"South Gate","lat":120.670038,"lng":28.014446},{"category":"dazzle","city":"WenZhou","address":"3F, Times Square, WenZhou","title":"Times Square","lat":120.690787,"lng":28.005367},{"category":"dazzle","city":"JinHua","address":"4F, No.168 Jie Fang East Road, Wu Cheng District, JinHua","title":"Intime Department Store","lat":119.661687,"lng":29.109699},{"category":"dazzle","city":"JinHua","address":"4F, No.159 Xi Shi Street, JinHua","title":"NO.1 Department Store","lat":119.66068,"lng":29.107964},{"category":"dazzle","city":"NingBo","address":"2F, No.188 Zhong Shan East Road, NingBo","title":"Intime Department Store","lat":121.55288,"lng":29.832339},{"category":"dazzle","city":"NingBo","address":"No.999Si Ming Zhong Road, Yin Zhou District, NingBo","title":"WanDa Plaza","lat":121.55132,"lng":29.832855},{"category":"dazzle","city":"NingBo","address":"No.99 Da Qing South Road, Jiang Bei District, NingBo","title":"Raffles City","lat":121.56384,"lng":29.888732},{"category":"dazzle","city":"ShenZhen","address":"4F, Nan Shan MAOYE, ShenZhen","title":"Nan Shan MAOYE","lat":113.936868,"lng":22.524987},{"category":"dazzle","city":"ShenZhen","address":"GF, CENTRAL WALK, ShenZhen","title":"CENTRAL WALK","lat":114.066115,"lng":22.540385},{"category":"dazzle","city":"ShenZhen","address":"3F, No.33 Wen Xin Wu Road, Nan Shan District, ShenZhen","title":"COASTAL PLAZA","lat":113.943197,"lng":22.522026},{"category":"dazzle","city":"ShenZhen","address":"1F, No.117 Tai Ning Road, Luo Hu District, ShenZhen","title":"VICITY MALL","lat":114.147757,"lng":22.573602},{"category":"dazzle","city":"ShenZhen","address":"1F, No.55 Zhen Xing Road, Fu Tian District, ShenZhen","title":"Fine City","lat":114.094783,"lng":22.55225},{"category":"dazzle","city":"ShenZhen","address":"2F, No.1881 Bao An South Road, ShenZhen","title":"The Mixc Mall","lat":114.117812,"lng":22.546084},{"category":"dazzle","city":"ShenZhen","address":"4F, Hua Qiang Road, Fu Tian District, ShenZhen","title":"MAOYE","lat":114.09316,"lng":22.551132},{"category":"dazzle","city":"ShenZhen","address":"B1, No.2028 Ren Min South Road, Luo Hu District, ShenZhen","title":"King Glory Plaza","lat":114.12605,"lng":22.545817},{"category":"dazzle","city":"ShenZhen","address":"3F, No.5016 Shen Nan East Road, Luo Hu District, ShenZhen","title":"KK MALL","lat":114.113626,"lng":22.55084},{"category":"dazzle","city":"ShenZhen","address":"3F, Dong Men Zhong Road, Luo Hu District, ShenZhen","title":"Dong Men MAOYE","lat":114.127312,"lng":22.55321},{"category":"dazzle","city":"ShenZhen","address":"2F, Fu Hua San Road, Fu Tian District, ShenZhen","title":"RAINBOW","lat":114.126827,"lng":22.55377},{"category":"dazzle","city":"ShenZhen","address":"2F, No.3018 Jian She Road, Luo Hu District, ShenZhen","title":"1234SPACE","lat":113.900653,"lng":22.7864},{"category":"dazzle","city":"ShenZhen","address":"No.118 Fu Hua San Road, Fu Tian District, ShenZhen","title":"WangTee Plaza","lat":114.06612,"lng":22.538699},{"category":"dazzle","city":"GuangZhou","address":"3F, No.369 Huan Shi East Road, Yue Xiu District, GuangZhou","title":"Friendship Shop","lat":113.294224,"lng":23.142946},{"category":"dazzle","city":"GuangZhou","address":"4F, No.40 Nong Lin Xia Road, GuangZhou","title":"Wang Fu Jin Department Store","lat":113.3045,"lng":23.135719},{"category":"dazzle","city":"GuangZhou","address":"No.230 Tian He Road, Tian He District, GuangZhou","title":"One Link Walk","lat":113.336057,"lng":23.138734},{"category":"dazzle","city":"GuangZhou","address":"1F, No.509 Yun Cheng East Road, Bai Yun District, GuangZhou","title":"WanDa Plaza","lat":113.273348,"lng":23.178698},{"category":"dazzle","city":"GuangZhou","address":"No.228 Tian He Road, GuangZhou","title":"GrandView Mall","lat":113.333813,"lng":23.138485},{"category":"dazzle","city":"GuangZhou","address":"B1, Rock Square, GuangZhou","title":"Rock Square","lat":113.265947,"lng":23.095368},{"category":"dazzle","city":"GuangZhou","address":"B1, No.33 Zhong Shan San Road, Yue Xiu District, GuangZhou","title":"China Plaza","lat":113.28863,"lng":23.131747},{"category":"dazzle","city":"JiNan","address":"4F, No.66 luo Yuan Street, JiNan","title":"Intime Department Store","lat":117.03597,"lng":36.665695},{"category":"dazzle","city":"JiNan","address":"3F, No.188 Quan Cheng Road, Li Xia District, JiNan","title":"CENTER 66","lat":117.030382,"lng":36.670595},{"category":"dazzle","city":"JiNan","address":"1F, WanDa Plaza, ShanDong","title":"WanDa Plaza","lat":117.008428,"lng":36.668387},{"category":"dazzle","city":"ChongQing","address":"2F, Heavenly Street, ChongQing","title":"Heavenly Street","lat":106.540381,"lng":29.581997},{"category":"dazzle","city":"ChongQing","address":"2F, New century Department Store, ChongQing","title":"New century Department Store(Kai Rui)","lat":106.469071,"lng":29.564542},{"category":"dazzle","city":"ChongQing","address":"2F, No.68 Zou Rong Road, Yu Zhong District, ChongQing","title":"PACIFIC","lat":106.58555,"lng":29.563389},{"category":"dazzle","city":"ChongQing","address":"2F, YUAN DONG PACIFIC, ChongQing","title":"YUAN DONG PACIFIC","lat":106.539917,"lng":29.584455},{"category":"dazzle","city":"ChongQing","address":"GF, STATLIGHT, ChongQing","title":"STATLIGHT","lat":106.577853,"lng":29.529717},{"category":"dazzle","city":"ChongQing","address":"4F, New century Plaza, ChongQing","title":"New century Plaza","lat":106.539129,"lng":29.579374},{"category":"dazzle","city":"ChongQing","address":"2F, No.49 Xiao Xin Street ,Sha Ping Ba District, ChongQing","title":"Wang Fu Jin Department Store","lat":106.470549,"lng":29.563464},{"category":"dazzle","city":"ChongQing","address":"2F, No.26 Yangjiapingzheng Street, Jiulongpo District, Chongqing City","title":"New century Department Store(Rui Cheng)","lat":106.521768,"lng":29.517327},{"category":"dazzle","city":"ChongQing","address":"2F, Times Parkadise Walk, ChongQing","title":"Times Parkadise Walk","lat":106.5178,"lng":29.544636}]